{"ast":null,"code":"export var cities=[{city:'New York',population:'8,175,133',image:'http://upload.wikimedia.org/wikipedia/commons/thumb/b/b9/Above_Gotham.jpg/240px-Above_Gotham.jpg',state:'New York',latitude:40.6643,longitude:-73.9385},{city:'Los Angeles',population:'3,792,621',image:'http://upload.wikimedia.org/wikipedia/commons/thumb/5/57/LA_Skyline_Mountains2.jpg/240px-LA_Skyline_Mountains2.jpg',state:'California',latitude:34.0194,longitude:-118.4108},{city:'Chicago',population:'2,695,598',image:'http://upload.wikimedia.org/wikipedia/commons/thumb/8/85/2008-06-10_3000x1000_chicago_skyline.jpg/240px-2008-06-10_3000x1000_chicago_skyline.jpg',state:'Illinois',latitude:41.8376,longitude:-87.6818},{city:'Houston',population:'2,100,263',image:'http://upload.wikimedia.org/wikipedia/commons/thumb/6/60/Aerial_views_of_the_Houston%2C_Texas%2C_28005u.jpg/240px-Aerial_views_of_the_Houston%2C_Texas%2C_28005u.jpg',state:'Texas',latitude:29.7805,longitude:-95.3863},{city:'Phoenix',population:'1,445,632',image:'http://upload.wikimedia.org/wikipedia/commons/thumb/b/b9/Downtown_Phoenix_Aerial_Looking_Northeast.jpg/207px-Downtown_Phoenix_Aerial_Looking_Northeast.jpg',state:'Arizona',latitude:33.5722,longitude:-112.088},{city:'Philadelphia',population:'1,526,006',image:'http://upload.wikimedia.org/wikipedia/commons/thumb/4/4d/Philly_skyline.jpg/240px-Philly_skyline.jpg',state:'Pennsylvania',latitude:40.0094,longitude:-75.1333},{city:'San Antonio',population:'1,327,407',image:'http://upload.wikimedia.org/wikipedia/commons/thumb/f/ff/Downtown_San_Antonio_View.JPG/240px-Downtown_San_Antonio_View.JPG',state:'Texas',latitude:29.4724,longitude:-98.5251},{city:'San Diego',population:'1,307,402',image:'http://upload.wikimedia.org/wikipedia/commons/thumb/5/53/US_Navy_110604-N-NS602-574_Navy_and_Marine_Corps_personnel%2C_along_with_community_leaders_from_the_greater_San_Diego_area_come_together_to_commemora.jpg/240px-US_Navy_110604-N-NS602-574_Navy_and_Marine_Corps_personnel%2C_along_with_community_leaders_from_the_greater_San_Diego_area_come_together_to_commemora.jpg',state:'California',latitude:32.8153,longitude:-117.135},{city:'Dallas',population:'1,197,816',image:'http://upload.wikimedia.org/wikipedia/commons/thumb/a/ab/Dallas_skyline_daytime.jpg/240px-Dallas_skyline_daytime.jpg',state:'Texas',latitude:32.7757,longitude:-96.7967},{city:'San Jose',population:'945,942',image:'http://upload.wikimedia.org/wikipedia/commons/thumb/1/1e/Downtown_San_Jose_skyline.PNG/240px-Downtown_San_Jose_skyline.PNG',state:'California',latitude:37.2969,longitude:-121.8193},{city:'Austin',population:'790,390',image:'http://upload.wikimedia.org/wikipedia/commons/thumb/9/97/Austin2012-12-01.JPG/240px-Austin2012-12-01.JPG',state:'Texas',latitude:30.3072,longitude:-97.756},{city:'Jacksonville',population:'821,784',image:'http://upload.wikimedia.org/wikipedia/commons/thumb/f/f3/Skyline_of_Jacksonville_FL%2C_South_view_20160706_1.jpg/240px-Skyline_of_Jacksonville_FL%2C_South_view_20160706_1.jpg',state:'Florida',latitude:30.337,longitude:-81.6613},{city:'San Francisco',population:'805,235',image:'http://upload.wikimedia.org/wikipedia/commons/thumb/6/6a/San_Francisco_skyline_from_Coit_Tower.jpg/240px-San_Francisco_skyline_from_Coit_Tower.jpg',state:'California',latitude:37.7751,longitude:-122.4193},{city:'Columbus',population:'787,033',image:'http://upload.wikimedia.org/wikipedia/commons/thumb/f/fc/Columbus-ohio-skyline-panorama.jpg/240px-Columbus-ohio-skyline-panorama.jpg',state:'Ohio',latitude:39.9848,longitude:-82.985},{city:'Indianapolis',population:'820,445',image:'http://upload.wikimedia.org/wikipedia/commons/thumb/1/16/Downtown_indy_from_parking_garage_zoom.JPG/213px-Downtown_indy_from_parking_garage_zoom.JPG',state:'Indiana',latitude:39.7767,longitude:-86.1459},{city:'Fort Worth',population:'741,206',image:'http://upload.wikimedia.org/wikipedia/commons/thumb/d/db/FortWorthTexasSkylineW.jpg/240px-FortWorthTexasSkylineW.jpg',state:'Texas',latitude:32.7795,longitude:-97.3463},{city:'Charlotte',population:'731,424',image:'http://upload.wikimedia.org/wikipedia/commons/thumb/7/7d/Charlotte_skyline45647.jpg/222px-Charlotte_skyline45647.jpg',state:'North Carolina',latitude:35.2087,longitude:-80.8307},{city:'Seattle',population:'608,660',image:'http://upload.wikimedia.org/wikipedia/commons/thumb/3/36/SeattleI5Skyline.jpg/240px-SeattleI5Skyline.jpg',state:'Washington',latitude:47.6205,longitude:-122.3509},{city:'Denver',population:'600,158',image:'http://upload.wikimedia.org/wikipedia/commons/thumb/0/0b/DenverCP.JPG/240px-DenverCP.JPG',state:'Colorado',latitude:39.7618,longitude:-104.8806},{city:'El Paso',population:'649,121',image:'http://upload.wikimedia.org/wikipedia/commons/thumb/6/6d/Downtown_El_Paso_at_sunset.jpeg/240px-Downtown_El_Paso_at_sunset.jpeg',state:'Texas',latitude:31.8484,longitude:-106.427}];","map":{"version":3,"sources":["D:/Projects/Cdss apps/Final version/admin/src/_mock/map/cities.js"],"names":["cities","city","population","image","state","latitude","longitude"],"mappings":"AAAA,MAAO,IAAMA,CAAAA,MAAM,CAAG,CACpB,CACEC,IAAI,CAAE,UADR,CAEEC,UAAU,CAAE,WAFd,CAGEC,KAAK,CACH,kGAJJ,CAKEC,KAAK,CAAE,UALT,CAMEC,QAAQ,CAAE,OANZ,CAOEC,SAAS,CAAE,CAAC,OAPd,CADoB,CAUpB,CACEL,IAAI,CAAE,aADR,CAEEC,UAAU,CAAE,WAFd,CAGEC,KAAK,CACH,oHAJJ,CAKEC,KAAK,CAAE,YALT,CAMEC,QAAQ,CAAE,OANZ,CAOEC,SAAS,CAAE,CAAC,QAPd,CAVoB,CAmBpB,CACEL,IAAI,CAAE,SADR,CAEEC,UAAU,CAAE,WAFd,CAGEC,KAAK,CACH,kJAJJ,CAKEC,KAAK,CAAE,UALT,CAMEC,QAAQ,CAAE,OANZ,CAOEC,SAAS,CAAE,CAAC,OAPd,CAnBoB,CA4BpB,CACEL,IAAI,CAAE,SADR,CAEEC,UAAU,CAAE,WAFd,CAGEC,KAAK,CACH,sKAJJ,CAKEC,KAAK,CAAE,OALT,CAMEC,QAAQ,CAAE,OANZ,CAOEC,SAAS,CAAE,CAAC,OAPd,CA5BoB,CAqCpB,CACEL,IAAI,CAAE,SADR,CAEEC,UAAU,CAAE,WAFd,CAGEC,KAAK,CACH,4JAJJ,CAKEC,KAAK,CAAE,SALT,CAMEC,QAAQ,CAAE,OANZ,CAOEC,SAAS,CAAE,CAAC,OAPd,CArCoB,CA8CpB,CACEL,IAAI,CAAE,cADR,CAEEC,UAAU,CAAE,WAFd,CAGEC,KAAK,CACH,sGAJJ,CAKEC,KAAK,CAAE,cALT,CAMEC,QAAQ,CAAE,OANZ,CAOEC,SAAS,CAAE,CAAC,OAPd,CA9CoB,CAuDpB,CACEL,IAAI,CAAE,aADR,CAEEC,UAAU,CAAE,WAFd,CAGEC,KAAK,CACH,4HAJJ,CAKEC,KAAK,CAAE,OALT,CAMEC,QAAQ,CAAE,OANZ,CAOEC,SAAS,CAAE,CAAC,OAPd,CAvDoB,CAgEpB,CACEL,IAAI,CAAE,WADR,CAEEC,UAAU,CAAE,WAFd,CAGEC,KAAK,CACH,oXAJJ,CAKEC,KAAK,CAAE,YALT,CAMEC,QAAQ,CAAE,OANZ,CAOEC,SAAS,CAAE,CAAC,OAPd,CAhEoB,CAyEpB,CACEL,IAAI,CAAE,QADR,CAEEC,UAAU,CAAE,WAFd,CAGEC,KAAK,CACH,sHAJJ,CAKEC,KAAK,CAAE,OALT,CAMEC,QAAQ,CAAE,OANZ,CAOEC,SAAS,CAAE,CAAC,OAPd,CAzEoB,CAkFpB,CACEL,IAAI,CAAE,UADR,CAEEC,UAAU,CAAE,SAFd,CAGEC,KAAK,CACH,4HAJJ,CAKEC,KAAK,CAAE,YALT,CAMEC,QAAQ,CAAE,OANZ,CAOEC,SAAS,CAAE,CAAC,QAPd,CAlFoB,CA2FpB,CACEL,IAAI,CAAE,QADR,CAEEC,UAAU,CAAE,SAFd,CAGEC,KAAK,CACH,0GAJJ,CAKEC,KAAK,CAAE,OALT,CAMEC,QAAQ,CAAE,OANZ,CAOEC,SAAS,CAAE,CAAC,MAPd,CA3FoB,CAoGpB,CACEL,IAAI,CAAE,cADR,CAEEC,UAAU,CAAE,SAFd,CAGEC,KAAK,CACH,gLAJJ,CAKEC,KAAK,CAAE,SALT,CAMEC,QAAQ,CAAE,MANZ,CAOEC,SAAS,CAAE,CAAC,OAPd,CApGoB,CA6GpB,CACEL,IAAI,CAAE,eADR,CAEEC,UAAU,CAAE,SAFd,CAGEC,KAAK,CACH,oJAJJ,CAKEC,KAAK,CAAE,YALT,CAMEC,QAAQ,CAAE,OANZ,CAOEC,SAAS,CAAE,CAAC,QAPd,CA7GoB,CAsHpB,CACEL,IAAI,CAAE,UADR,CAEEC,UAAU,CAAE,SAFd,CAGEC,KAAK,CACH,sIAJJ,CAKEC,KAAK,CAAE,MALT,CAMEC,QAAQ,CAAE,OANZ,CAOEC,SAAS,CAAE,CAAC,MAPd,CAtHoB,CA+HpB,CACEL,IAAI,CAAE,cADR,CAEEC,UAAU,CAAE,SAFd,CAGEC,KAAK,CACH,sJAJJ,CAKEC,KAAK,CAAE,SALT,CAMEC,QAAQ,CAAE,OANZ,CAOEC,SAAS,CAAE,CAAC,OAPd,CA/HoB,CAwIpB,CACEL,IAAI,CAAE,YADR,CAEEC,UAAU,CAAE,SAFd,CAGEC,KAAK,CACH,sHAJJ,CAKEC,KAAK,CAAE,OALT,CAMEC,QAAQ,CAAE,OANZ,CAOEC,SAAS,CAAE,CAAC,OAPd,CAxIoB,CAiJpB,CACEL,IAAI,CAAE,WADR,CAEEC,UAAU,CAAE,SAFd,CAGEC,KAAK,CACH,sHAJJ,CAKEC,KAAK,CAAE,gBALT,CAMEC,QAAQ,CAAE,OANZ,CAOEC,SAAS,CAAE,CAAC,OAPd,CAjJoB,CA0JpB,CACEL,IAAI,CAAE,SADR,CAEEC,UAAU,CAAE,SAFd,CAGEC,KAAK,CACH,0GAJJ,CAKEC,KAAK,CAAE,YALT,CAMEC,QAAQ,CAAE,OANZ,CAOEC,SAAS,CAAE,CAAC,QAPd,CA1JoB,CAmKpB,CACEL,IAAI,CAAE,QADR,CAEEC,UAAU,CAAE,SAFd,CAGEC,KAAK,CACH,0FAJJ,CAKEC,KAAK,CAAE,UALT,CAMEC,QAAQ,CAAE,OANZ,CAOEC,SAAS,CAAE,CAAC,QAPd,CAnKoB,CA4KpB,CACEL,IAAI,CAAE,SADR,CAEEC,UAAU,CAAE,SAFd,CAGEC,KAAK,CACH,gIAJJ,CAKEC,KAAK,CAAE,OALT,CAMEC,QAAQ,CAAE,OANZ,CAOEC,SAAS,CAAE,CAAC,OAPd,CA5KoB,CAAf","sourcesContent":["export const cities = [\n  {\n    city: 'New York',\n    population: '8,175,133',\n    image:\n      'http://upload.wikimedia.org/wikipedia/commons/thumb/b/b9/Above_Gotham.jpg/240px-Above_Gotham.jpg',\n    state: 'New York',\n    latitude: 40.6643,\n    longitude: -73.9385\n  },\n  {\n    city: 'Los Angeles',\n    population: '3,792,621',\n    image:\n      'http://upload.wikimedia.org/wikipedia/commons/thumb/5/57/LA_Skyline_Mountains2.jpg/240px-LA_Skyline_Mountains2.jpg',\n    state: 'California',\n    latitude: 34.0194,\n    longitude: -118.4108\n  },\n  {\n    city: 'Chicago',\n    population: '2,695,598',\n    image:\n      'http://upload.wikimedia.org/wikipedia/commons/thumb/8/85/2008-06-10_3000x1000_chicago_skyline.jpg/240px-2008-06-10_3000x1000_chicago_skyline.jpg',\n    state: 'Illinois',\n    latitude: 41.8376,\n    longitude: -87.6818\n  },\n  {\n    city: 'Houston',\n    population: '2,100,263',\n    image:\n      'http://upload.wikimedia.org/wikipedia/commons/thumb/6/60/Aerial_views_of_the_Houston%2C_Texas%2C_28005u.jpg/240px-Aerial_views_of_the_Houston%2C_Texas%2C_28005u.jpg',\n    state: 'Texas',\n    latitude: 29.7805,\n    longitude: -95.3863\n  },\n  {\n    city: 'Phoenix',\n    population: '1,445,632',\n    image:\n      'http://upload.wikimedia.org/wikipedia/commons/thumb/b/b9/Downtown_Phoenix_Aerial_Looking_Northeast.jpg/207px-Downtown_Phoenix_Aerial_Looking_Northeast.jpg',\n    state: 'Arizona',\n    latitude: 33.5722,\n    longitude: -112.088\n  },\n  {\n    city: 'Philadelphia',\n    population: '1,526,006',\n    image:\n      'http://upload.wikimedia.org/wikipedia/commons/thumb/4/4d/Philly_skyline.jpg/240px-Philly_skyline.jpg',\n    state: 'Pennsylvania',\n    latitude: 40.0094,\n    longitude: -75.1333\n  },\n  {\n    city: 'San Antonio',\n    population: '1,327,407',\n    image:\n      'http://upload.wikimedia.org/wikipedia/commons/thumb/f/ff/Downtown_San_Antonio_View.JPG/240px-Downtown_San_Antonio_View.JPG',\n    state: 'Texas',\n    latitude: 29.4724,\n    longitude: -98.5251\n  },\n  {\n    city: 'San Diego',\n    population: '1,307,402',\n    image:\n      'http://upload.wikimedia.org/wikipedia/commons/thumb/5/53/US_Navy_110604-N-NS602-574_Navy_and_Marine_Corps_personnel%2C_along_with_community_leaders_from_the_greater_San_Diego_area_come_together_to_commemora.jpg/240px-US_Navy_110604-N-NS602-574_Navy_and_Marine_Corps_personnel%2C_along_with_community_leaders_from_the_greater_San_Diego_area_come_together_to_commemora.jpg',\n    state: 'California',\n    latitude: 32.8153,\n    longitude: -117.135\n  },\n  {\n    city: 'Dallas',\n    population: '1,197,816',\n    image:\n      'http://upload.wikimedia.org/wikipedia/commons/thumb/a/ab/Dallas_skyline_daytime.jpg/240px-Dallas_skyline_daytime.jpg',\n    state: 'Texas',\n    latitude: 32.7757,\n    longitude: -96.7967\n  },\n  {\n    city: 'San Jose',\n    population: '945,942',\n    image:\n      'http://upload.wikimedia.org/wikipedia/commons/thumb/1/1e/Downtown_San_Jose_skyline.PNG/240px-Downtown_San_Jose_skyline.PNG',\n    state: 'California',\n    latitude: 37.2969,\n    longitude: -121.8193\n  },\n  {\n    city: 'Austin',\n    population: '790,390',\n    image:\n      'http://upload.wikimedia.org/wikipedia/commons/thumb/9/97/Austin2012-12-01.JPG/240px-Austin2012-12-01.JPG',\n    state: 'Texas',\n    latitude: 30.3072,\n    longitude: -97.756\n  },\n  {\n    city: 'Jacksonville',\n    population: '821,784',\n    image:\n      'http://upload.wikimedia.org/wikipedia/commons/thumb/f/f3/Skyline_of_Jacksonville_FL%2C_South_view_20160706_1.jpg/240px-Skyline_of_Jacksonville_FL%2C_South_view_20160706_1.jpg',\n    state: 'Florida',\n    latitude: 30.337,\n    longitude: -81.6613\n  },\n  {\n    city: 'San Francisco',\n    population: '805,235',\n    image:\n      'http://upload.wikimedia.org/wikipedia/commons/thumb/6/6a/San_Francisco_skyline_from_Coit_Tower.jpg/240px-San_Francisco_skyline_from_Coit_Tower.jpg',\n    state: 'California',\n    latitude: 37.7751,\n    longitude: -122.4193\n  },\n  {\n    city: 'Columbus',\n    population: '787,033',\n    image:\n      'http://upload.wikimedia.org/wikipedia/commons/thumb/f/fc/Columbus-ohio-skyline-panorama.jpg/240px-Columbus-ohio-skyline-panorama.jpg',\n    state: 'Ohio',\n    latitude: 39.9848,\n    longitude: -82.985\n  },\n  {\n    city: 'Indianapolis',\n    population: '820,445',\n    image:\n      'http://upload.wikimedia.org/wikipedia/commons/thumb/1/16/Downtown_indy_from_parking_garage_zoom.JPG/213px-Downtown_indy_from_parking_garage_zoom.JPG',\n    state: 'Indiana',\n    latitude: 39.7767,\n    longitude: -86.1459\n  },\n  {\n    city: 'Fort Worth',\n    population: '741,206',\n    image:\n      'http://upload.wikimedia.org/wikipedia/commons/thumb/d/db/FortWorthTexasSkylineW.jpg/240px-FortWorthTexasSkylineW.jpg',\n    state: 'Texas',\n    latitude: 32.7795,\n    longitude: -97.3463\n  },\n  {\n    city: 'Charlotte',\n    population: '731,424',\n    image:\n      'http://upload.wikimedia.org/wikipedia/commons/thumb/7/7d/Charlotte_skyline45647.jpg/222px-Charlotte_skyline45647.jpg',\n    state: 'North Carolina',\n    latitude: 35.2087,\n    longitude: -80.8307\n  },\n  {\n    city: 'Seattle',\n    population: '608,660',\n    image:\n      'http://upload.wikimedia.org/wikipedia/commons/thumb/3/36/SeattleI5Skyline.jpg/240px-SeattleI5Skyline.jpg',\n    state: 'Washington',\n    latitude: 47.6205,\n    longitude: -122.3509\n  },\n  {\n    city: 'Denver',\n    population: '600,158',\n    image:\n      'http://upload.wikimedia.org/wikipedia/commons/thumb/0/0b/DenverCP.JPG/240px-DenverCP.JPG',\n    state: 'Colorado',\n    latitude: 39.7618,\n    longitude: -104.8806\n  },\n  {\n    city: 'El Paso',\n    population: '649,121',\n    image:\n      'http://upload.wikimedia.org/wikipedia/commons/thumb/6/6d/Downtown_El_Paso_at_sunset.jpeg/240px-Downtown_El_Paso_at_sunset.jpeg',\n    state: 'Texas',\n    latitude: 31.8484,\n    longitude: -106.427\n  }\n];\n"]},"metadata":{},"sourceType":"module"}